{
    "rows": [
        { "_id" : { "$oid" : "535fcc91e6f593ae7981af81" }, "street" : "2181 WINTERHAVEN CIR", "city" : "CAMERON PARK", "zip" : 95682, "state" : "CA", "beds" : 3, "baths" : 2, "sq__ft" : 0, "type" : "Residential", "sale_date" : "Thu May 15 00:00:00 EDT 2008", "price" : 224500, "latitude" : "38.69757", "longitude" : "-120.995739" },
        { "_id" : { "$oid" : "535fcc91e6f593ae7981af82" }, "street" : "7540 HICKORY AVE", "city" : "ORANGEVALE", "zip" : 95662, "state" : "CA", "beds" : 3, "baths" : 1, "sq__ft" : 1456, "type" : "Residential", "sale_date" : "Thu May 15 00:00:00 EDT 2008", "price" : 225000, "latitude" : "38.703056", "longitude" : "-121.235221" },
        { "_id" : { "$oid" : "535fcc91e6f593ae7981af83" }, "street" : "5024 CHAMBERLIN CIR", "city" : "ELK GROVE", "zip" : 95757, "state" : "CA", "beds" : 3, "baths" : 2, "sq__ft" : 1450, "type" : "Residential", "sale_date" : "Thu May 15 00:00:00 EDT 2008", "price" : 228000, "latitude" : 38.389756, "longitude" : -121.446246 },
        { "_id" : { "$oid" : "535fcc91e6f593ae7981af84" }, "street" : "2400 INVERNESS DR", "city" : "LINCOLN", "zip" : 95648, "state" : "CA", "beds" : 3, "baths" : 2, "sq__ft" : 1358, "type" : "Residential", "sale_date" : "Thu May 15 00:00:00 EDT 2008", "price" : 229027, "latitude" : 38.897814, "longitude" : -121.324691 },
        { "_id" : { "$oid" : "535fcc91e6f593ae7981af85" }, "street" : "5 BISHOPGATE CT", "city" : "SACRAMENTO", "zip" : 95823, "state" : "CA", "beds" : 4, "baths" : 2, "sq__ft" : 1329, "type" : "Residential", "sale_date" : "Thu May 15 00:00:00 EDT 2008", "price" : 229500, "latitude" : 38.467936, "longitude" : -121.445477 },
        { "_id" : { "$oid" : "535fcc91e6f593ae7981af86" }, "street" : "5601 REXLEIGH DR", "city" : "SACRAMENTO", "zip" : 95823, "state" : "CA", "beds" : 4, "baths" : 2, "sq__ft" : 1715, "type" : "Residential", "sale_date" : "Thu May 15 00:00:00 EDT 2008", "price" : 230000, "latitude" : 38.445342, "longitude" : -121.441504 },
        { "_id" : { "$oid" : "535fcc91e6f593ae7981af87" }, "street" : "1909 YARNELL WAY", "city" : "ELK GROVE", "zip" : 95758, "state" : "CA", "beds" : 3, "baths" : 2, "sq__ft" : 1262, "type" : "Residential", "sale_date" : "Thu May 15 00:00:00 EDT 2008", "price" : 230000, "latitude" : 38.417382, "longitude" : -121.484325 },
        { "_id" : { "$oid" : "535fcc91e6f593ae7981af88" }, "street" : "9169 GARLINGTON CT", "city" : "SACRAMENTO", "zip" : 95829, "state" : "CA", "beds" : 4, "baths" : 3, "sq__ft" : 2280, "type" : "Residential", "sale_date" : "Thu May 15 00:00:00 EDT 2008", "price" : 232425, "latitude" : 38.457679, "longitude" : -121.35962 },
        { "_id" : { "$oid" : "535fcc91e6f593ae7981af89" }, "street" : "6932 RUSKUT WAY", "city" : "SACRAMENTO", "zip" : 95823, "state" : "CA", "beds" : 3, "baths" : 2, "sq__ft" : 1477, "type" : "Residential", "sale_date" : "Thu May 15 00:00:00 EDT 2008", "price" : 234000, "latitude" : 38.499893, "longitude" : -121.45889 },
        { "_id" : { "$oid" : "535fcc91e6f593ae7981af8a" }, "street" : "7933 DAFFODIL WAY", "city" : "CITRUS HEIGHTS", "zip" : 95610, "state" : "CA", "beds" : 3, "baths" : 2, "sq__ft" : 1216, "type" : "Residential", "sale_date" : "Thu May 15 00:00:00 EDT 2008", "price" : 235000, "latitude" : 38.708824, "longitude" : -121.256803 },
        { "_id" : { "$oid" : "535fcc91e6f593ae7981af8b" }, "street" : "8304 RED FOX WAY", "city" : "ELK GROVE", "zip" : 95758, "state" : "CA", "beds" : 4, "baths" : 2, "sq__ft" : 1685, "type" : "Residential", "sale_date" : "Thu May 15 00:00:00 EDT 2008", "price" : 235301, "latitude" : 38.417, "longitude" : -121.397424 },
        { "_id" : { "$oid" : "535fcc91e6f593ae7981af8c" }, "street" : "3882 YELLOWSTONE LN", "city" : "EL DORADO HILLS", "zip" : 95762, "state" : "CA", "beds" : 3, "baths" : 2, "sq__ft" : 1362, "type" : "Residential", "sale_date" : "Thu May 15 00:00:00 EDT 2008", "price" : 235738, "latitude" : 38.655245, "longitude" : -121.075915 }
    ]
}
